[{"id":"92-pullman","name":"92 Pullman","suggest":"92 Pullman","address":"92 Pullman Way","city":"San Jose","state":"CA","zip":"95111","latitude":37.290004,"longitude":-121.849646,"formattedAddress":"92 Pullman Way, San Jose, CA 95111","publish":true,"description":"","phone":"+14084402362","email":"","type":"Dispensary","seed":true,"userId":"NyawkfGkVveSX1tDFRpwbvrUYbF3"},{"id":"root-19","name":"Root 19","suggest":"Root 19","address":"17043 Lakewood Boulevard","city":"Bellflower","state":"CA","zip":"90706","latitude":33.87908,"longitude":-118.142641,"formattedAddress":"17043 Lakewood Boulevard, Bellflower, CA 90706","publish":true,"description":"","phone":"+15626791155","email":"","type":"Dispensary","seed":true,"userId":"NyawkfGkVveSX1tDFRpwbvrUYbF3"},{"id":"11th-st-well-health","name":"11th St. Well-Health","suggest":"11th St. Well-Health","address":"7650 West 11th Street","city":"Tracy","state":"CA","zip":"95304","latitude":37.739246,"longitude":-121.400408,"formattedAddress":"7650 West 11th Street, Tracy, CA 95304","publish":true,"description":"","phone":"+12092817130","email":"","type":"Dispensary","seed":true,"userId":"NyawkfGkVveSX1tDFRpwbvrUYbF3"},{"id":"monterey-bay-alternative-medicine","name":"Monterey Bay Alternative Medicine","suggest":"Monterey Bay Alternative Medicine","address":"800 Portola Drive","city":"Del Rey Oaks","state":"CA","zip":"93940","latitude":36.598825,"longitude":-121.850269,"formattedAddress":"800 Portola Drive, Del Rey Oaks, CA 93940","publish":true,"description":"","phone":"+18313932500","email":"","type":"Dispensary","seed":true,"userId":"NyawkfGkVveSX1tDFRpwbvrUYbF3"},{"id":"organic-greens-collective","name":"Organic Greens Collective","suggest":"Organic Greens Collective","address":"298 Orange Avenue b","city":"Goleta","state":"CA","zip":"93117","latitude":34.434024,"longitude":-119.828678,"formattedAddress":"298 Orange Avenue b, Goleta, CA 93117","publish":true,"description":"","phone":"+18057700580","email":"","type":"Dispensary","seed":true,"userId":"NyawkfGkVveSX1tDFRpwbvrUYbF3"},{"id":"sccc","name":"SCCC","suggest":"SCCC","address":"135 Main Avenue","city":"Sacramento","state":"CA","zip":"95838","latitude":38.656035,"longitude":-121.469813,"formattedAddress":"135 Main Avenue, Sacramento, CA 95838","publish":true,"description":"","phone":"+19162543287","email":"","type":"Dispensary","seed":true,"userId":"NyawkfGkVveSX1tDFRpwbvrUYbF3"},{"id":"tahoe-wellness-cooperative","name":"Tahoe Wellness Cooperative","suggest":"Tahoe Wellness Cooperative","address":"3445 Lake Tahoe Boulevard","city":"South Lake Tahoe","state":"CA","zip":"96150","latitude":38.946212,"longitude":-119.965581,"formattedAddress":"3445 Lake Tahoe Boulevard, South Lake Tahoe, CA 96150","publish":true,"description":"","phone":"+15305448000","email":"","type":"Dispensary","seed":true,"userId":"NyawkfGkVveSX1tDFRpwbvrUYbF3"},{"id":"green-mammoth","name":"Green Mammoth","suggest":"Green Mammoth","address":"94 Laurel Mountain Road #420","city":"Mammoth Lakes","state":"CA","zip":"93546","latitude":37.645494,"longitude":-118.968291,"formattedAddress":"94 Laurel Mountain Road #420, Mammoth Lakes, CA 93546","publish":true,"description":"","phone":"+17609345400","email":"","type":"Dispensary","seed":true,"userId":"NyawkfGkVveSX1tDFRpwbvrUYbF3"},{"id":"cookies-sf","name":"Cookies SF","suggest":"Cookies SF","address":"5234 Mission Street","city":"San Francisco","state":"CA","zip":"94112","latitude":37.715373,"longitude":-122.442147,"formattedAddress":"5234 Mission Street, San Francisco, CA 94112","publish":true,"description":"","phone":"+14157695001","email":"","type":"Dispensary","seed":true,"userId":"NyawkfGkVveSX1tDFRpwbvrUYbF3"},{"id":"collective-efforts","name":"Collective Efforts","suggest":"Collective Efforts","address":"2831 Fruitridge Road e","city":"Sacramento","state":"CA","zip":"95820","latitude":38.525222,"longitude":-121.476297,"formattedAddress":"2831 Fruitridge Road e, Sacramento, CA 95820","publish":true,"description":"","phone":"+19164751857","email":"","type":"Dispensary","seed":true,"userId":"NyawkfGkVveSX1tDFRpwbvrUYbF3"},{"id":"leave-it-to-nature","name":"Leave it to Nature","suggest":"Leave it to Nature","address":"5340 Shasta Dam Boulevard","city":"Shasta Lake","state":"CA","zip":"96019","latitude":40.679733,"longitude":-122.352071,"formattedAddress":"5340 Shasta Dam Boulevard, Shasta Lake, CA 96019","publish":true,"description":"","phone":"+15306917199","email":"","type":"Dispensary","seed":true,"userId":"NyawkfGkVveSX1tDFRpwbvrUYbF3"},{"id":"long-lodge-tribal-enterprises","name":"Long Lodge Tribal Enterprises","suggest":"Long Lodge Tribal Enterprises","address":"2000 Harbor Boulevard","city":"Costa Mesa","state":"CA","zip":"92627","latitude":33.64731,"longitude":-117.918278,"formattedAddress":"2000 Harbor Boulevard, Costa Mesa, CA 92627","publish":true,"description":"","phone":"+17146002894","email":"","type":"Dispensary","seed":true,"userId":"NyawkfGkVveSX1tDFRpwbvrUYbF3"},{"id":"kure-wellness","name":"Kure Wellness","suggest":"Kure Wellness","address":"800 Lake Mendocino Drive","city":"Ukiah","state":"CA","zip":"95482","latitude":39.196531,"longitude":-123.19248,"formattedAddress":"800 Lake Mendocino Drive, Ukiah, CA 95482","publish":true,"description":"","phone":"+17076215390","email":"","type":"Dispensary","seed":true,"userId":"NyawkfGkVveSX1tDFRpwbvrUYbF3"},{"id":"cali-releaf","name":"CALI RELEAF","suggest":"CALI RELEAF","address":"1930 Pacific Coast Highway","city":"Lomita","state":"CA","zip":"90717","latitude":33.789126,"longitude":-118.313045,"formattedAddress":"1930 Pacific Coast Highway, Lomita, CA 90717","publish":true,"description":"","phone":"+13107205926","email":"","type":"Dispensary","seed":true,"userId":"NyawkfGkVveSX1tDFRpwbvrUYbF3"},{"id":"empire-meds","name":"Empire Meds","suggest":"Empire Meds","address":"8622 Troy Street","city":"Spring Valley","state":"CA","zip":"91977","latitude":32.736912,"longitude":-117.013865,"formattedAddress":"8622 Troy Street, Spring Valley, CA 91977","publish":true,"description":"","phone":"+16197044475","email":"","type":"Dispensary","seed":true,"userId":"NyawkfGkVveSX1tDFRpwbvrUYbF3"},{"id":"compassion-union-inc---pre-ico","name":"Compassion Union Inc - PRE ICO","suggest":"Compassion Union Inc - PRE ICO","address":"11055 Santa Monica Boulevard","city":"Los Angeles","state":"CA","zip":"90025","latitude":34.048432,"longitude":-118.443075,"formattedAddress":"11055 Santa Monica Boulevard, Los Angeles, CA 90025","publish":true,"description":"","phone":"+13109660467","email":"","type":"Dispensary","seed":true,"userId":"NyawkfGkVveSX1tDFRpwbvrUYbF3"},{"id":"bomb-buds---upland","name":"Bomb Buds - Upland","suggest":"Bomb Buds - Upland","address":"134 North 2nd Avenue k","city":"Upland","state":"CA","zip":"91786","latitude":34.095299,"longitude":-117.648023,"formattedAddress":"134 North 2nd Avenue k, Upland, CA 91786","publish":true,"description":"","phone":"+19513749741","email":"","type":"Dispensary","seed":true,"userId":"NyawkfGkVveSX1tDFRpwbvrUYbF3"},{"id":"gardenas-med-center","name":"Gardenas Med Center","suggest":"Gardenas Med Center","address":"841 West Gardena Boulevard","city":"Gardena","state":"CA","zip":"90247","latitude":33.881881,"longitude":-118.290477,"formattedAddress":"841 West Gardena Boulevard, Gardena, CA 90247","publish":true,"description":"","phone":"+13104934828","email":"","type":"Dispensary","seed":true,"userId":"NyawkfGkVveSX1tDFRpwbvrUYbF3"},{"id":"the-lakeside-collective","name":"The Lakeside Collective","suggest":"The Lakeside Collective","address":"15573 Grand Avenue","city":"Lake Elsinore","state":"CA","zip":"92530","latitude":33.660728,"longitude":-117.380284,"formattedAddress":"15573 Grand Avenue, Lake Elsinore, CA 92530","publish":true,"description":"","phone":"+19515798870","email":"","type":"Dispensary","seed":true,"userId":"NyawkfGkVveSX1tDFRpwbvrUYbF3"},{"id":"htc-high-tide-church","name":"HTC HIGH TIDE CHURCH","suggest":"HTC HIGH TIDE CHURCH","address":"19142 Beach Boulevard f","city":"Huntington Beach","state":"CA","zip":"92648","latitude":33.684582,"longitude":-117.98798,"formattedAddress":"19142 Beach Boulevard f, Huntington Beach, CA 92648","publish":true,"description":"","phone":"+17147426979","email":"","type":"Dispensary","seed":true,"userId":"NyawkfGkVveSX1tDFRpwbvrUYbF3"},{"id":"the-cure","name":"The Cure","suggest":"The Cure","address":"560 El Cajon Boulevard","city":"El Cajon","state":"CA","zip":"92020","latitude":32.790599,"longitude":-116.972462,"formattedAddress":"560 El Cajon Boulevard, El Cajon, CA 92020","publish":true,"description":"","phone":"+16193766686","email":"","type":"Dispensary","seed":true,"userId":"NyawkfGkVveSX1tDFRpwbvrUYbF3"},{"id":"the-heights-collective","name":"The Heights Collective","suggest":"The Heights Collective","address":"19261 Colima Road d","city":"Rowland Heights","state":"CA","zip":"91748","latitude":33.987603,"longitude":-117.882815,"formattedAddress":"19261 Colima Road d, Rowland Heights, CA 91748","publish":true,"description":"","phone":"+16264304067","email":"","type":"Dispensary","seed":true,"userId":"NyawkfGkVveSX1tDFRpwbvrUYbF3"},{"id":"green-mile-collective","name":"Green Mile Collective","suggest":"Green Mile Collective","address":"2613 Diamond Street","city":"Rosamond","state":"CA","zip":"93560","latitude":34.858943,"longitude":-118.164024,"formattedAddress":"2613 Diamond Street, Rosamond, CA 93560","publish":true,"description":"","phone":"+16615442954","email":"","type":"Dispensary","seed":true,"userId":"NyawkfGkVveSX1tDFRpwbvrUYbF3"},{"id":"canogas-finest","name":"Canoga's Finest","suggest":"Canoga's Finest","address":"7230 Variel Avenue","city":"Los Angeles","state":"CA","zip":"91303","latitude":34.202053,"longitude":-118.592651,"formattedAddress":"7230 Variel Avenue, Los Angeles, CA 91303","publish":true,"description":"","phone":"+18184664854","email":"","type":"Dispensary","seed":true,"userId":"NyawkfGkVveSX1tDFRpwbvrUYbF3"},{"id":"highway-99-collective","name":"HIGHWAY 99 COLLECTIVE","suggest":"HIGHWAY 99 COLLECTIVE","address":"19456 Colombo Street h","city":"Bakersfield","state":"CA","zip":"93308","latitude":35.444704,"longitude":-119.087432,"formattedAddress":"19456 Colombo Street h, Bakersfield, CA 93308","publish":true,"description":"","phone":"+16613919825","email":"","type":"Dispensary","seed":true,"userId":"NyawkfGkVveSX1tDFRpwbvrUYbF3"},{"id":"golden-valley-collective","name":"Golden Valley Collective","suggest":"Golden Valley Collective","address":"3912 Merrill Avenue","city":"Riverside","state":"CA","zip":"92506","latitude":33.956387,"longitude":-117.395457,"formattedAddress":"3912 Merrill Avenue, Riverside, CA 92506","publish":true,"description":"","phone":"+19164675809","email":"","type":"Dispensary","seed":true,"userId":"NyawkfGkVveSX1tDFRpwbvrUYbF3"},{"id":"famous-roots","name":"FAMOUS ROOTS","suggest":"FAMOUS ROOTS","address":"12708 Foothill Boulevard","city":"Los Angeles","state":"CA","zip":"91342","latitude":34.290116,"longitude":-118.412149,"formattedAddress":"12708 Foothill Boulevard, Los Angeles, CA 91342","publish":true,"description":"","phone":"+18183366115","email":"","type":"Dispensary","seed":true,"userId":"NyawkfGkVveSX1tDFRpwbvrUYbF3"},{"id":"diamond-collective","name":"Diamond Collective","suggest":"Diamond Collective","address":"5555 Jackson Drive","city":"La Mesa","state":"CA","zip":"91942","latitude":32.779768,"longitude":-117.018332,"formattedAddress":"5555 Jackson Drive, La Mesa, CA 91942","publish":true,"description":"","phone":"+16195973009","email":"","type":"Dispensary","seed":true,"userId":"NyawkfGkVveSX1tDFRpwbvrUYbF3"},{"id":"fire-station---corona","name":"Fire Station - Corona","suggest":"Fire Station - Corona","address":"19470 Envoy Avenue","city":"Corona","state":"CA","zip":"92881","latitude":33.83701,"longitude":-117.522807,"formattedAddress":"19470 Envoy Avenue, Corona, CA 92881","publish":true,"description":"","phone":"+17147070035","email":"","type":"Dispensary","seed":true,"userId":"NyawkfGkVveSX1tDFRpwbvrUYbF3"},{"id":"la-wonderland-caregivers","name":"LA Wonderland Caregivers","suggest":"LA Wonderland Caregivers","address":"150 Venice Boulevard","city":"Los Angeles","state":"CA","zip":"90015","latitude":34.033971,"longitude":-118.264551,"formattedAddress":"150 Venice Boulevard, Los Angeles, CA 90015","publish":true,"description":"","phone":"+12137656099","email":"","type":"Dispensary","seed":true,"userId":"NyawkfGkVveSX1tDFRpwbvrUYbF3"},{"id":"green-gold-cultivators","name":"Green Gold Cultivators","suggest":"Green Gold Cultivators","address":"568 Angels Road","city":"San Andreas","state":"CA","zip":"95249","latitude":38.188751,"longitude":-120.675326,"formattedAddress":"568 Angels Road, San Andreas, CA 95249","publish":true,"description":"","phone":"+12096748008","email":"","type":"Dispensary","seed":true,"userId":"NyawkfGkVveSX1tDFRpwbvrUYbF3"},{"id":"greenleaf-collective","name":"GreenLeaf Collective","suggest":"GreenLeaf Collective","address":"1560 South Long Beach Boulevard","city":"Compton","state":"CA","zip":"90221","latitude":33.881638,"longitude":-118.204448,"formattedAddress":"1560 South Long Beach Boulevard, Compton, CA 90221","publish":true,"description":"","phone":"+13107103099","email":"","type":"Dispensary","seed":true,"userId":"NyawkfGkVveSX1tDFRpwbvrUYbF3"},{"id":"tree-house-collective","name":"TREE HOUSE COLLECTIVE","suggest":"TREE HOUSE COLLECTIVE","address":"1526 South Santa Fe Avenue b","city":"Vista","state":"CA","zip":"92084","latitude":33.182573,"longitude":-117.217596,"formattedAddress":"1526 South Santa Fe Avenue b, Vista, CA 92084","publish":true,"description":"","phone":"+17606316900","email":"","type":"Dispensary","seed":true,"userId":"NyawkfGkVveSX1tDFRpwbvrUYbF3"},{"id":"holistic-pain-relief---prop-d-compliant","name":"Holistic Pain Relief - Prop D Compliant","suggest":"Holistic Pain Relief - Prop D Compliant","address":"5993 South Saint Andrews Place","city":"Los Angeles","state":"CA","zip":"90047","latitude":33.985456,"longitude":-118.311828,"formattedAddress":"5993 South Saint Andrews Place, Los Angeles, CA 90047","publish":true,"description":"","phone":"+13237788540","email":"","type":"Dispensary","seed":true,"userId":"NyawkfGkVveSX1tDFRpwbvrUYbF3"},{"id":"hollyweed","name":"HOLLYWEED","suggest":"HOLLYWEED","address":"5142 Venice Boulevard","city":"Los Angeles","state":"CA","zip":"90019","latitude":34.044598,"longitude":-118.352096,"formattedAddress":"5142 Venice Boulevard, Los Angeles, CA 90019","publish":true,"description":"","phone":"+13239395299","email":"","type":"Dispensary","seed":true,"userId":"NyawkfGkVveSX1tDFRpwbvrUYbF3"},{"id":"elac","name":"ELAC","suggest":"ELAC","address":"5910 Whittier Boulevard","city":"East Los Angeles","state":"CA","zip":"90022","latitude":34.017347,"longitude":-118.143961,"formattedAddress":"5910 Whittier Boulevard, East Los Angeles, CA 90022","publish":true,"description":"","phone":"+13234797833","email":"","type":"Dispensary","seed":true,"userId":"NyawkfGkVveSX1tDFRpwbvrUYbF3"},{"id":"golden-state-cbd","name":"Golden State CBD","suggest":"Golden State CBD","address":"616 East Alvarado Street","city":"Fallbrook","state":"CA","zip":"92028","latitude":33.38231,"longitude":-117.245128,"formattedAddress":"616 East Alvarado Street, Fallbrook, CA 92028","publish":true,"description":"","phone":"+17604513000","email":"","type":"Dispensary","seed":true,"userId":"NyawkfGkVveSX1tDFRpwbvrUYbF3"},{"id":"euclid-medical-center-emc","name":"Euclid Medical Center (EMC)","suggest":"Euclid Medical Center (EMC)","address":"9757 Garden Grove Boulevard","city":"Garden Grove","state":"CA","zip":"92844","latitude":33.774509,"longitude":-117.962254,"formattedAddress":"9757 Garden Grove Boulevard, Garden Grove, CA 92844","publish":true,"description":"","phone":"+17147192713","email":"","type":"Dispensary","seed":true,"userId":"NyawkfGkVveSX1tDFRpwbvrUYbF3"},{"id":"h-street-patient-care","name":"H Street Patient Care","suggest":"H Street Patient Care","address":"221 H Street","city":"Needles","state":"CA","zip":"92363","latitude":34.839478,"longitude":-114.608139,"formattedAddress":"221 H Street, Needles, CA 92363","publish":true,"description":"","phone":"+17603263893","email":"","type":"Dispensary","seed":true,"userId":"NyawkfGkVveSX1tDFRpwbvrUYbF3"},{"id":"flight-club","name":"Flight Club","suggest":"Flight Club","address":"6740 North Blackstone Avenue","city":"Fresno","state":"CA","zip":"93710","latitude":36.836313,"longitude":-119.789707,"formattedAddress":"6740 North Blackstone Avenue, Fresno, CA 93710","publish":true,"description":"","phone":"+15593699283","email":"","type":"Dispensary","seed":true,"userId":"NyawkfGkVveSX1tDFRpwbvrUYbF3"},{"id":"urban-pharm","name":"Urban Pharm","suggest":"Urban Pharm","address":"122 10th Street","city":"San Francisco","state":"CA","zip":"94103","latitude":37.774824,"longitude":-122.415737,"formattedAddress":"122 10th Street, San Francisco, CA 94103","publish":true,"description":"","phone":"+14158729488","email":"","type":"Dispensary","seed":true,"userId":"NyawkfGkVveSX1tDFRpwbvrUYbF3"},{"id":"nor---hemet","name":"NOR - Hemet","suggest":"NOR - Hemet","address":"33671 Old State Highway","city":"Hemet","state":"CA","zip":"92545","latitude":33.739139,"longitude":-117.074518,"formattedAddress":"33671 Old State Highway, Hemet, CA 92545","publish":true,"description":"","phone":"+19515994997","email":"","type":"Dispensary","seed":true,"userId":"NyawkfGkVveSX1tDFRpwbvrUYbF3"},{"id":"the-green-rose","name":"The Green Rose","suggest":"The Green Rose","address":"4569 Melrose Avenue","city":"Los Angeles","state":"CA","zip":"90029","latitude":34.083677,"longitude":-118.299812,"formattedAddress":"4569 Melrose Avenue, Los Angeles, CA 90029","publish":true,"description":"","phone":"+13235357427","email":"","type":"Dispensary","seed":true,"userId":"NyawkfGkVveSX1tDFRpwbvrUYbF3"},{"id":"palm-springs-safe-access-pssa","name":"Palm Springs Safe Access (PSSA)","suggest":"Palm Springs Safe Access (PSSA)","address":"1247 South Gene Autry Trail","city":"Palm Springs","state":"CA","zip":"92264","latitude":33.806074,"longitude":-116.493425,"formattedAddress":"1247 South Gene Autry Trail, Palm Springs, CA 92264","publish":true,"description":"","phone":"+17603223314","email":"","type":"Dispensary","seed":true,"userId":"NyawkfGkVveSX1tDFRpwbvrUYbF3"},{"id":"sun-valley-caregivers-35-cap-svc","name":"Sun Valley Caregivers 35 CAP SVC","suggest":"Sun Valley Caregivers 35 CAP SVC","address":"11000 Randall Street","city":"Los Angeles","state":"CA","zip":"91352","latitude":34.237469,"longitude":-118.37036,"formattedAddress":"11000 Randall Street, Los Angeles, CA 91352","publish":true,"description":"","phone":"+18185042661","email":"","type":"Dispensary","seed":true,"userId":"NyawkfGkVveSX1tDFRpwbvrUYbF3"},{"id":"wwc","name":"WWC","suggest":"WWC","address":"217 East Washington Boulevard","city":"Los Angeles","state":"CA","zip":"90015","latitude":34.030545,"longitude":-118.26278,"formattedAddress":"217 East Washington Boulevard, Los Angeles, CA 90015","publish":true,"description":"","phone":"+17474007900","email":"","type":"Dispensary","seed":true,"userId":"NyawkfGkVveSX1tDFRpwbvrUYbF3"},{"id":"scsa-south-coast-safe-access---santa-ana-92705","name":"SCSA South Coast Safe Access - Santa Ana 92705","suggest":"SCSA South Coast Safe Access - Santa Ana 92705","address":"1900 Warner Avenue a","city":"Santa Ana","state":"CA","zip":"92705","latitude":33.712942,"longitude":-117.841143,"formattedAddress":"1900 Warner Avenue a, Santa Ana, CA 92705","publish":true,"description":"","phone":"+19494747272","email":"","type":"Dispensary","seed":true,"userId":"NyawkfGkVveSX1tDFRpwbvrUYbF3"},{"id":"main-spot-pre-ico","name":"Main Spot (PRE-ICO)","suggest":"Main Spot (PRE-ICO)","address":"10950 South Main Street","city":"Los Angeles","state":"CA","zip":"90061","latitude":33.936403,"longitude":-118.273652,"formattedAddress":"10950 South Main Street, Los Angeles, CA 90061","publish":true,"description":"","phone":"+13239229112","email":"","type":"Dispensary","seed":true,"userId":"NyawkfGkVveSX1tDFRpwbvrUYbF3"},{"id":"point-loma-patient-consumer-co-op---ocean-beach","name":"Point Loma Patient Consumer Co-Op - Ocean Beach","suggest":"Point Loma Patient Consumer Co-Op - Ocean Beach","address":"3452 Hancock Street","city":"San Diego","state":"CA","zip":"92110","latitude":32.756266,"longitude":-117.208264,"formattedAddress":"3452 Hancock Street, San Diego, CA 92110","publish":true,"description":"","phone":"+16195740415","email":"","type":"Dispensary","seed":true,"userId":"NyawkfGkVveSX1tDFRpwbvrUYbF3"},{"id":"zen-noho-prop-d","name":"Zen Noho Prop D","suggest":"Zen Noho Prop D","address":"5142 Vineland Avenue","city":"Los Angeles","state":"CA","zip":"91601","latitude":34.163841,"longitude":-118.370018,"formattedAddress":"5142 Vineland Avenue, Los Angeles, CA 91601","publish":true,"description":"","phone":"+18184873737","email":"","type":"Dispensary","seed":true,"userId":"NyawkfGkVveSX1tDFRpwbvrUYbF3"},{"id":"jeff-odle","name":"Jeff Odle","suggest":"Jeff Odle","address":"14703 Sundance Pl","city":"Canyon Country","state":"CA","zip":"91387","latitude":34.4516916,"longitude":-118.3927885,"formattedAddress":"14703 Sundance Pl, Canyon Country, CA 91387","publish":true,"description":"","phone":"6617136234","email":"tickets@jeffodle.com","type":"Dispensary","seed":true,"userId":"NyawkfGkVveSX1tDFRpwbvrUYbF3"},{"id":"nugl-hq","name":"NUGL HQ","suggest":"NUGL HQ","address":"4195 Chino Hills Parkway #175","city":"Chino Hills","state":"CA","zip":"91709","latitude":33.9819557,"longitude":-117.713148,"formattedAddress":"4195 Chino Hills Parkway #175, Chino Hills, CA 91709","publish":true,"description":"NUGL is a search engine and online directory, created by technology professionals for the marijuana industry. NUGLâ€™s search and user ratings are unbiased for true results. The NUGL database includes listings for dispensaries, strains, doctors, lawyers, service professionals, vape shops, hydro stores, and brands.","phone":"(714) 383-9982","email":"info@nugl.com","type":"Dispensary","seed":true,"userId":"NyawkfGkVveSX1tDFRpwbvrUYbF3"}]

